[
  {
    "id": "4534491713",
    "lat": "2.9384381",
    "long": "101.69223",
    "name": "HQ PUTRAJAYA",
    "isIn": "MALAYSIA"
  },
  {
    "id": "249666046",
    "lat": "5.4065013",
    "long": "100.2559077",
    "name": "PULAU PINANG",
    "isIn": "MALAYSIA"
  },
  {
    "id": "591590403",
    "lat": "5.8098265",
    "long": "100.6715035",
    "name": "KEDAH",
    "isIn": "MALAYSIA"
  },
  {
    "id": "591590407",
    "lat": "6.4868392",
    "long": "100.2577623",
    "name": "PERLIS",
    "isIn": "MALAYSIA"
  },
  {
    "id": "1775640129",
    "lat": "5.4257359",
    "long": "117.0326392",
    "name": "SABAH",
    "isIn": "MALAYSIA"
  },
  {
    "id": "2609539356",
    "lat": "2.0229012",
    "long": "103.3147721",
    "name": "JOHOR",
    "isIn": "MALAYSIA"
  },
  {
    "id": "2609539371",
    "lat": "2.5023855",
    "long": "112.9547283",
    "name": "SARAWAK",
    "isIn": "MALAYSIA"
  },
  {
    "id": "3208142734",
    "lat": "4.812181",
    "long": "100.9797908",
    "name": "PERAK",
    "isIn": "MALAYSIA"
  },
  {
    "id": "3222282161",
    "lat": "3.6168822",
    "long": "102.5994547",
    "name": "PAHANG",
    "isIn": "MALAYSIA"
  },
  {
    "id": "3665372243",
    "lat": "3.2083304",
    "long": "101.304146",
    "name": "SELANGOR",
    "isIn": "MALAYSIA"
  },
  {
    "id": "4165045379",
    "lat": "4.8630743",
    "long": "102.9949297",
    "name": "TERENGGANU",
    "isIn": "MALAYSIA"
  },
  {
    "id": "4165056889",
    "lat": "5.4021302",
    "long": "102.0635972",
    "name": "KELANTAN",
    "isIn": "MALAYSIA"
  },
  {   
    "id": "4165116689",
    "lat": "3.1526589",
    "long": "101.7022205",
    "name": "KUALA LUMPUR",
    "isIn": "MALAYSIA"  
  },
  {
    "id": "4165154141",   
    "lat": "2.2245111",
    "long": "102.2614662",
    "name": "MELAKA",  
    "isIn": "MALAYSIA"
  },    
  {
    "id": "4556962889",
    "lat": "2.7831895",
    "long": "102.1925319",
    "name": "N. SEMBILAN",
    "isIn": "MALAYSIA"
  }
]